[
  {
    "code": "POLE0001",
    "title": "Poste Huauchinango 1",
    "description": "Poste ubicado en Huauchinango, Puebla.",
    "address": "Calle Principal 1, Huauchinango, Puebla, México",
    "latitude": 20.1745,
    "longitude": -98.0511,
    "pin_color": "#007bff",
    "zone": "Huauchinango, Puebla",
    "client": "CLIENT0001"
  },
  {
    "code": "POLE0002",
    "title": "Poste Huauchinango 2",
    "description": "Poste ubicado en Huauchinango, Puebla.",
    "address": "Calle Principal 2, Huauchinango, Puebla, México",
    "latitude": 20.1746,
    "longitude": -98.0512,
    "pin_color": "#007bff",
    "zone": "Huauchinango, Puebla",
    "client": "CLIENT0002"
  },
  {
    "code": "POLE0003",
    "title": "Poste Huauchinango 3",
    "description": "Poste ubicado en Huauchinango, Puebla.",
    "address": "Calle Principal 3, Huauchinango, Puebla, México",
    "latitude": 20.1747,
    "longitude": -98.0513,
    "pin_color": "#007bff",
    "zone": "Huauchinango, Puebla",
    "client": "CLIENT0003"
  },
  {
    "code": "POLE0004",
    "title": "Poste Huauchinango 4",
    "description": "Poste ubicado en Huauchinango, Puebla.",
    "address": "Calle Principal 4, Huauchinango, Puebla, México",
    "latitude": 20.1748,
    "longitude": -98.0514,
    "pin_color": "#007bff",
    "zone": "Huauchinango, Puebla",
    "client": "CLIENT0004"
  },
  {
    "code": "POLE0005",
    "title": "Poste Huauchinango 5",
    "description": "Poste ubicado en Huauchinango, Puebla.",
    "address": "Calle Principal 5, Huauchinango, Puebla, México",
    "latitude": 20.1749,
    "longitude": -98.0515,
    "pin_color": "#007bff",
    "zone": "Huauchinango, Puebla",
    "client": "CLIENT0005"
  },
  {
    "code": "POLE0006",
    "title": "Poste Huauchinango 6",
    "description": "Poste ubicado en Huauchinango, Puebla.",
    "address": "Calle Principal 6, Huauchinango, Puebla, México",
    "latitude": 20.1750,
    "longitude": -98.0516,
    "pin_color": "#007bff",
    "zone": "Huauchinango, Puebla",
    "client": "CLIENT0006"
  },
  {
    "code": "POLE0007",
    "title": "Poste Huauchinango 7",
    "description": "Poste ubicado en Huauchinango, Puebla.",
    "address": "Calle Principal 7, Huauchinango, Puebla, México",
    "latitude": 20.1751,
    "longitude": -98.0517,
    "pin_color": "#007bff",
    "zone": "Huauchinango, Puebla",
    "client": "CLIENT0007"
  },
  {
    "code": "POLE0008",
    "title": "Poste Huauchinango 8",
    "description": "Poste ubicado en Huauchinango, Puebla.",
    "address": "Calle Principal 8, Huauchinango, Puebla, México",
    "latitude": 20.1752,
    "longitude": -98.0518,
    "pin_color": "#007bff",
    "zone": "Huauchinango, Puebla",
    "client": "CLIENT0008"
  },
  {
    "code": "POLE0009",
    "title": "Poste Huauchinango 9",
    "description": "Poste ubicado en Huauchinango, Puebla.",
    "address": "Calle Principal 9, Huauchinango, Puebla, México",
    "latitude": 20.1753,
    "longitude": -98.0519,
    "pin_color": "#007bff",
    "zone": "Huauchinango, Puebla",
    "client": "CLIENT0009"
  },
  {
    "code": "POLE0010",
    "title": "Poste Huauchinango 10",
    "description": "Poste ubicado en Huauchinango, Puebla.",
    "address": "Calle Principal 10, Huauchinango, Puebla, México",
    "latitude": 20.1754,
    "longitude": -98.0520,
    "pin_color": "#007bff",
    "zone": "Huauchinango, Puebla",
    "client": "CLIENT0010"
  },
  {
    "code": "POLE0011",
    "title": "Poste Huauchinango 11",
    "description": "Poste ubicado en Huauchinango, Puebla.",
    "address": "Calle Principal 11, Huauchinango, Puebla, México",
    "latitude": 20.1755,
    "longitude": -98.0521,
    "pin_color": "#007bff",
    "zone": "Huauchinango, Puebla",
    "client": "CLIENT0011"
  },
  {
    "code": "POLE0012",
    "title": "Poste Huauchinango 12",
    "description": "Poste ubicado en Huauchinango, Puebla.",
    "address": "Calle Principal 12, Huauchinango, Puebla, México",
    "latitude": 20.1756,
    "longitude": -98.0522,
    "pin_color": "#007bff",
    "zone": "Huauchinango, Puebla",
    "client": "CLIENT0012"
  },
  {
    "code": "POLE0013",
    "title": "Poste Huauchinango 13",
    "description": "Poste ubicado en Huauchinango, Puebla.",
    "address": "Calle Principal 13, Huauchinango, Puebla, México",
    "latitude": 20.1757,
    "longitude": -98.0523,
    "pin_color": "#007bff",
    "zone": "Huauchinango, Puebla",
    "client": "CLIENT0013"
  },
  {
    "code": "POLE0014",
    "title": "Poste Huauchinango 14",
    "description": "Poste ubicado en Huauchinango, Puebla.",
    "address": "Calle Principal 14, Huauchinango, Puebla, México",
    "latitude": 20.1758,
    "longitude": -98.0524,
    "pin_color": "#007bff",
    "zone": "Huauchinango, Puebla",
    "client": "CLIENT0014"
  },
  {
    "code": "POLE0015",
    "title": "Poste Huauchinango 15",
    "description": "Poste ubicado en Huauchinango, Puebla.",
    "address": "Calle Principal 15, Huauchinango, Puebla, México",
    "latitude": 20.1759,
    "longitude": -98.0525,
    "pin_color": "#007bff",
    "zone": "Huauchinango, Puebla",
    "client": "CLIENT0015"
  },
  {
    "code": "POLE0016",
    "title": "Poste Huauchinango 16",
    "description": "Poste ubicado en Huauchinango, Puebla.",
    "address": "Calle Principal 16, Huauchinango, Puebla, México",
    "latitude": 20.1760,
    "longitude": -98.0526,
    "pin_color": "#007bff",
    "zone": "Huauchinango, Puebla",
    "client": "CLIENT0016"
  },
  {
    "code": "POLE0017",
    "title": "Poste Huauchinango 17",
    "description": "Poste ubicado en Huauchinango, Puebla.",
    "address": "Calle Principal 17, Huauchinango, Puebla, México",
    "latitude": 20.1761,
    "longitude": -98.0527,
    "pin_color": "#007bff",
    "zone": "Huauchinango, Puebla",
    "client": "CLIENT0017"
  },
  {
    "code": "POLE0018",
    "title": "Poste Huauchinango 18",
    "description": "Poste ubicado en Huauchinango, Puebla.",
    "address": "Calle Principal 18, Huauchinango, Puebla, México",
    "latitude": 20.1762,
    "longitude": -98.0528,
    "pin_color": "#007bff",
    "zone": "Huauchinango, Puebla",
    "client": "CLIENT0018"
  },
  {
    "code": "POLE0019",
    "title": "Poste Huauchinango 19",
    "description": "Poste ubicado en Huauchinango, Puebla.",
    "address": "Calle Principal 19, Huauchinango, Puebla, México",
    "latitude": 20.1763,
    "longitude": -98.0529,
    "pin_color": "#007bff",
    "zone": "Huauchinango, Puebla",
    "client": "CLIENT0019"
  },
  {
    "code": "POLE0020",
    "title": "Poste Huauchinango 20",
    "description": "Poste ubicado en Huauchinango, Puebla.",
    "address": "Calle Principal 20, Huauchinango, Puebla, México",
    "latitude": 20.1764,
    "longitude": -98.0530,
    "pin_color": "#007bff",
    "zone": "Huauchinango, Puebla",
    "client": "CLIENT0020"
  },
  {
    "code": "POLE0021",
    "title": "Poste CDMX 1",
    "description": "Poste ubicado en Ciudad de México.",
    "address": "Av. Reforma 1, Ciudad de México, México",
    "latitude": 19.4326,
    "longitude": -99.1332,
    "pin_color": "#ff5733",
    "zone": "Ciudad de México",
    "client": "CLIENT0021"
  },
  {
    "code": "POLE0022",
    "title": "Poste CDMX 2",
    "description": "Poste ubicado en Ciudad de México.",
    "address": "Av. Reforma 2, Ciudad de México, México",
    "latitude": 19.4327,
    "longitude": -99.1333,
    "pin_color": "#ff5733",
    "zone": "Ciudad de México",
    "client": "CLIENT0022"
  },
  {
    "code": "POLE0023",
    "title": "Poste Puebla 1",
    "description": "Poste ubicado en Puebla.",
    "address": "Calle 5 de Mayo 1, Puebla, México",
    "latitude": 19.0414,
    "longitude": -98.2063,
    "pin_color": "#33ff57",
    "zone": "Puebla",
    "client": "CLIENT0023"
  },
  {
    "code": "POLE0024",
    "title": "Poste Puebla 2",
    "description": "Poste ubicado en Puebla.",
    "address": "Calle 5 de Mayo 2, Puebla, México",
    "latitude": 19.0415,
    "longitude": -98.2064,
    "pin_color": "#33ff57",
    "zone": "Puebla",
    "client": "CLIENT0024"
  },
  {
    "code": "POLE0025",
    "title": "Poste Monterrey 1",
    "description": "Poste ubicado en Monterrey.",
    "address": "Av. Constitución 1, Monterrey, México",
    "latitude": 25.6866,
    "longitude": -100.3161,
    "pin_color": "#3357ff",
    "zone": "Monterrey",
    "client": "CLIENT0025"
  },
  {
    "code": "POLE0026",
    "title": "Poste Monterrey 2",
    "description": "Poste ubicado en Monterrey.",
    "address": "Av. Constitución 2, Monterrey, México",
    "latitude": 25.6867,
    "longitude": -100.3162,
    "pin_color": "#3357ff",
    "zone": "Monterrey",
    "client": "CLIENT0026"
  },
  {
    "code": "POLE0027",
    "title": "Poste Guadalajara 1",
    "description": "Poste ubicado en Guadalajara.",
    "address": "Av. Juárez 1, Guadalajara, México",
    "latitude": 20.6597,
    "longitude": -103.3496,
    "pin_color": "#ff33a6",
    "zone": "Guadalajara",
    "client": "CLIENT0027"
  },
  {
    "code": "POLE0028",
    "title": "Poste Guadalajara 2",
    "description": "Poste ubicado en Guadalajara.",
    "address": "Av. Juárez 2, Guadalajara, México",
    "latitude": 20.6598,
    "longitude": -103.3497,
    "pin_color": "#ff33a6",
    "zone": "Guadalajara",
    "client": "CLIENT0028"
  },
  {
    "code": "POLE0029",
    "title": "Poste Mérida 1",
    "description": "Poste ubicado en Mérida.",
    "address": "Calle 60 1, Mérida, México",
    "latitude": 20.9674,
    "longitude": -89.5926,
    "pin_color": "#33fff5",
    "zone": "Mérida",
    "client": "CLIENT0029"
  },
  {
    "code": "POLE0030",
    "title": "Poste Mérida 2",
    "description": "Poste ubicado en Mérida.",
    "address": "Calle 60 2, Mérida, México",
    "latitude": 20.9675,
    "longitude": -89.5927,
    "pin_color": "#33fff5",
    "zone": "Mérida",
    "client": "CLIENT0030"
  },
  {
    "code": "POLE0031",
    "title": "Poste Tijuana 1",
    "description": "Poste ubicado en Tijuana.",
    "address": "Av. Revolución 1, Tijuana, México",
    "latitude": 32.5149,
    "longitude": -117.0382,
    "pin_color": "#f5a633",
    "zone": "Tijuana",
    "client": "CLIENT0031"
  },
  {
    "code": "POLE0032",
    "title": "Poste Tijuana 2",
    "description": "Poste ubicado en Tijuana.",
    "address": "Av. Revolución 2, Tijuana, México",
    "latitude": 32.5150,
    "longitude": -117.0383,
    "pin_color": "#f5a633",
    "zone": "Tijuana",
    "client": "CLIENT0032"
  },
  {
    "code": "POLE0033",
    "title": "Poste Cancún 1",
    "description": "Poste ubicado en Cancún.",
    "address": "Av. Tulum 1, Cancún, México",
    "latitude": 21.1619,
    "longitude": -86.8515,
    "pin_color": "#33f5a6",
    "zone": "Cancún",
    "client": "CLIENT0033"
  },
  {
    "code": "POLE0034",
    "title": "Poste Cancún 2",
    "description": "Poste ubicado en Cancún.",
    "address": "Av. Tulum 2, Cancún, México",
    "latitude": 21.1620,
    "longitude": -86.8516,
    "pin_color": "#33f5a6",
    "zone": "Cancún",
    "client": "CLIENT0034"
  },
  {
    "code": "POLE0035",
    "title": "Poste Querétaro 1",
    "description": "Poste ubicado en Querétaro.",
    "address": "Av. Corregidora 1, Querétaro, México",
    "latitude": 20.5888,
    "longitude": -100.3899,
    "pin_color": "#a633f5",
    "zone": "Querétaro",
    "client": "CLIENT0035"
  },
  {
    "code": "POLE0036",
    "title": "Poste Querétaro 2",
    "description": "Poste ubicado en Querétaro.",
    "address": "Av. Corregidora 2, Querétaro, México",
    "latitude": 20.5889,
    "longitude": -100.3900,
    "pin_color": "#a633f5",
    "zone": "Querétaro",
    "client": "CLIENT0036"
  },
  {
    "code": "POLE0037",
    "title": "Poste León 1",
    "description": "Poste ubicado en León.",
    "address": "Blvd. Adolfo López Mateos 1, León, México",
    "latitude": 21.1252,
    "longitude": -101.6860,
    "pin_color": "#f533a6",
    "zone": "León",
    "client": "CLIENT0037"
  },
  {
    "code": "POLE0038",
    "title": "Poste León 2",
    "description": "Poste ubicado en León.",
    "address": "Blvd. Adolfo López Mateos 2, León, México",
    "latitude": 21.1253,
    "longitude": -101.6861,
    "pin_color": "#f533a6",
    "zone": "León",
    "client": "CLIENT0038"
  },
  {
    "code": "POLE0039",
    "title": "Poste Toluca 1",
    "description": "Poste ubicado en Toluca.",
    "address": "Av. Independencia 1, Toluca, México",
    "latitude": 19.2897,
    "longitude": -99.6532,
    "pin_color": "#33a6f5",
    "zone": "Toluca",
    "client": "CLIENT0039"
  },
  {
    "code": "POLE0040",
    "title": "Poste Toluca 2",
    "description": "Poste ubicado en Toluca.",
    "address": "Av. Independencia 2, Toluca, México",
    "latitude": 19.2898,
    "longitude": -99.6533,
    "pin_color": "#33a6f5",
    "zone": "Toluca",
    "client": "CLIENT0040"
  },
  {
    "code": "POLE0041",
    "title": "Poste Saltillo 1",
    "description": "Poste ubicado en Saltillo.",
    "address": "Calle Victoria 1, Saltillo, México",
    "latitude": 25.4382,
    "longitude": -101.0000,
    "pin_color": "#f5e633",
    "zone": "Saltillo",
    "client": "CLIENT0041"
  },
  {
    "code": "POLE0042",
    "title": "Poste Saltillo 2",
    "description": "Poste ubicado en Saltillo.",
    "address": "Calle Victoria 2, Saltillo, México",
    "latitude": 25.4383,
    "longitude": -101.0001,
    "pin_color": "#f5e633",
    "zone": "Saltillo",
    "client": "CLIENT0042"
  },
  {
    "code": "POLE0043",
    "title": "Poste Morelia 1",
    "description": "Poste ubicado en Morelia.",
    "address": "Av. Madero 1, Morelia, México",
    "latitude": 19.7036,
    "longitude": -101.1927,
    "pin_color": "#e633f5",
    "zone": "Morelia",
    "client": "CLIENT0043"
  },
  {
    "code": "POLE0044",
    "title": "Poste Morelia 2",
    "description": "Poste ubicado en Morelia.",
    "address": "Av. Madero 2, Morelia, México",
    "latitude": 19.7037,
    "longitude": -101.1928,
    "pin_color": "#e633f5",
    "zone": "Morelia",
    "client": "CLIENT0044"
  },
  {
    "code": "POLE0045",
    "title": "Poste Veracruz 1",
    "description": "Poste ubicado en Veracruz.",
    "address": "Av. Independencia 1, Veracruz, México",
    "latitude": 19.1903,
    "longitude": -96.1534,
    "pin_color": "#33e6f5",
    "zone": "Veracruz",
    "client": "CLIENT0045"
  },
  {
    "code": "POLE0046",
    "title": "Poste Veracruz 2",
    "description": "Poste ubicado en Veracruz.",
    "address": "Av. Independencia 2, Veracruz, México",
    "latitude": 19.1904,
    "longitude": -96.1535,
    "pin_color": "#33e6f5",
    "zone": "Veracruz",
    "client": "CLIENT0046"
  },
  {
    "code": "POLE0047",
    "title": "Poste Hermosillo 1",
    "description": "Poste ubicado en Hermosillo.",
    "address": "Blvd. Kino 1, Hermosillo, México",
    "latitude": 29.0729,
    "longitude": -110.9559,
    "pin_color": "#f533e6",
    "zone": "Hermosillo",
    "client": "CLIENT0047"
  },
  {
    "code": "POLE0048",
    "title": "Poste Hermosillo 2",
    "description": "Poste ubicado en Hermosillo.",
    "address": "Blvd. Kino 2, Hermosillo, México",
    "latitude": 29.0730,
    "longitude": -110.9560,
    "pin_color": "#f533e6",
    "zone": "Hermosillo",
    "client": "CLIENT0048"
  },
  {
    "code": "POLE0049",
    "title": "Poste Oaxaca 1",
    "description": "Poste ubicado en Oaxaca.",
    "address": "Calle Alcalá 1, Oaxaca, México",
    "latitude": 17.0732,
    "longitude": -96.7266,
    "pin_color": "#e6f533",
    "zone": "Oaxaca",
    "client": "CLIENT0049"
  },
  {
    "code": "POLE0050",
    "title": "Poste Oaxaca 2",
    "description": "Poste ubicado en Oaxaca.",
    "address": "Calle Alcalá 2, Oaxaca, México",
    "latitude": 17.0733,
    "longitude": -96.7267,
    "pin_color": "#e6f533",
    "zone": "Oaxaca",
    "client": "CLIENT0050"
  },
  {
    "code": "POLE0051",
    "title": "Poste Culiacán 1",
    "description": "Poste ubicado en Culiacán.",
    "address": "Av. Álvaro Obregón 1, Culiacán, México",
    "latitude": 24.8021,
    "longitude": -107.3935,
    "pin_color": "#33f5e6",
    "zone": "Culiacán",
    "client": "CLIENT0051"
  },
  {
    "code": "POLE0052",
    "title": "Poste Culiacán 2",
    "description": "Poste ubicado en Culiacán.",
    "address": "Av. Álvaro Obregón 2, Culiacán, México",
    "latitude": 24.8022,
    "longitude": -107.3936,
    "pin_color": "#33f5e6",
    "zone": "Culiacán",
    "client": "CLIENT0052"
  },
  {
    "code": "POLE0053",
    "title": "Poste Chihuahua 1",
    "description": "Poste ubicado en Chihuahua.",
    "address": "Av. Universidad 1, Chihuahua, México",
    "latitude": 28.6353,
    "longitude": -106.0889,
    "pin_color": "#f5e633",
    "zone": "Chihuahua",
    "client": "CLIENT0053"
  },
  {
    "code": "POLE0054",
    "title": "Poste Chihuahua 2",
    "description": "Poste ubicado en Chihuahua.",
    "address": "Av. Universidad 2, Chihuahua, México",
    "latitude": 28.6354,
    "longitude": -106.0890,
    "pin_color": "#f5e633",
    "zone": "Chihuahua",
    "client": "CLIENT0054"
  },
  {
    "code": "POLE0055",
    "title": "Poste San Luis Potosí 1",
    "description": "Poste ubicado en San Luis Potosí.",
    "address": "Av. Carranza 1, San Luis Potosí, México",
    "latitude": 22.1565,
    "longitude": -100.9855,
    "pin_color": "#e633f5",
    "zone": "San Luis Potosí",
    "client": "CLIENT0055"
  },
  {
    "code": "POLE0056",
    "title": "Poste San Luis Potosí 2",
    "description": "Poste ubicado en San Luis Potosí.",
    "address": "Av. Carranza 2, San Luis Potosí, México",
    "latitude": 22.1566,
    "longitude": -100.9856,
    "pin_color": "#e633f5",
    "zone": "San Luis Potosí",
    "client": "CLIENT0056"
  },
  {
    "code": "POLE0057",
    "title": "Poste Aguascalientes 1",
    "description": "Poste ubicado en Aguascalientes.",
    "address": "Av. Madero 1, Aguascalientes, México",
    "latitude": 21.8853,
    "longitude": -102.2916,
    "pin_color": "#33e6f5",
    "zone": "Aguascalientes",
    "client": "CLIENT0057"
  },
  {
    "code": "POLE0058",
    "title": "Poste Aguascalientes 2",
    "description": "Poste ubicado en Aguascalientes.",
    "address": "Av. Madero 2, Aguascalientes, México",
    "latitude": 21.8854,
    "longitude": -102.2917,
    "pin_color": "#33e6f5",
    "zone": "Aguascalientes",
    "client": "CLIENT0058"
  },
  {
    "code": "POLE0059",
    "title": "Poste Campeche 1",
    "description": "Poste ubicado en Campeche.",
    "address": "Calle 59 1, Campeche, México",
    "latitude": 19.8456,
    "longitude": -90.5231,
    "pin_color": "#f533e6",
    "zone": "Campeche",
    "client": "CLIENT0059"
  },
  {
    "code": "POLE0060",
    "title": "Poste Campeche 2",
    "description": "Poste ubicado en Campeche.",
    "address": "Calle 59 2, Campeche, México",
    "latitude": 19.8457,
    "longitude": -90.5232,
    "pin_color": "#f533e6",
    "zone": "Campeche",
    "client": "CLIENT0060"
  },
  {
    "code": "POLE0061",
    "title": "Poste Zacatecas 1",
    "description": "Poste ubicado en Zacatecas.",
    "address": "Av. Hidalgo 1, Zacatecas, México",
    "latitude": 22.7709,
    "longitude": -102.5832,
    "pin_color": "#a6f533",
    "zone": "Zacatecas",
    "client": "CLIENT0061"
  },
  {
    "code": "POLE0062",
    "title": "Poste Zacatecas 2",
    "description": "Poste ubicado en Zacatecas.",
    "address": "Av. Hidalgo 2, Zacatecas, México",
    "latitude": 22.7710,
    "longitude": -102.5833,
    "pin_color": "#a6f533",
    "zone": "Zacatecas",
    "client": "CLIENT0062"
  },
  {
    "code": "POLE0063",
    "title": "Poste Tuxtla 1",
    "description": "Poste ubicado en Tuxtla Gutiérrez.",
    "address": "Blvd. Belisario Domínguez 1, Tuxtla Gutiérrez, México",
    "latitude": 16.7536,
    "longitude": -93.1156,
    "pin_color": "#f5a633",
    "zone": "Tuxtla Gutiérrez",
    "client": "CLIENT0063"
  },
  {
    "code": "POLE0064",
    "title": "Poste Tuxtla 2",
    "description": "Poste ubicado en Tuxtla Gutiérrez.",
    "address": "Blvd. Belisario Domínguez 2, Tuxtla Gutiérrez, México",
    "latitude": 16.7537,
    "longitude": -93.1157,
    "pin_color": "#f5a633",
    "zone": "Tuxtla Gutiérrez",
    "client": "CLIENT0064"
  },
  {
    "code": "POLE0065",
    "title": "Poste Xalapa 1",
    "description": "Poste ubicado en Xalapa.",
    "address": "Av. Ávila Camacho 1, Xalapa, México",
    "latitude": 19.5438,
    "longitude": -96.9101,
    "pin_color": "#33a6f5",
    "zone": "Xalapa",
    "client": "CLIENT0065"
  },
  {
    "code": "POLE0066",
    "title": "Poste Xalapa 2",
    "description": "Poste ubicado en Xalapa.",
    "address": "Av. Ávila Camacho 2, Xalapa, México",
    "latitude": 19.5439,
    "longitude": -96.9102,
    "pin_color": "#33a6f5",
    "zone": "Xalapa",
    "client": "CLIENT0066"
  },
  {
    "code": "POLE0067",
    "title": "Poste Villahermosa 1",
    "description": "Poste ubicado en Villahermosa.",
    "address": "Av. 27 de Febrero 1, Villahermosa, México",
    "latitude": 17.9895,
    "longitude": -92.9475,
    "pin_color": "#f5a633",
    "zone": "Villahermosa",
    "client": "CLIENT0067"
  },
  {
    "code": "POLE0068",
    "title": "Poste Villahermosa 2",
    "description": "Poste ubicado en Villahermosa.",
    "address": "Av. 27 de Febrero 2, Villahermosa, México",
    "latitude": 17.9896,
    "longitude": -92.9476,
    "pin_color": "#f5a633",
    "zone": "Villahermosa",
    "client": "CLIENT0068"
  },
  {
    "code": "POLE0069",
    "title": "Poste Tepic 1",
    "description": "Poste ubicado en Tepic.",
    "address": "Av. México 1, Tepic, México",
    "latitude": 21.5095,
    "longitude": -104.8957,
    "pin_color": "#e633f5",
    "zone": "Tepic",
    "client": "CLIENT0069"
  },
  {
    "code": "POLE0070",
    "title": "Poste Tepic 2",
    "description": "Poste ubicado en Tepic.",
    "address": "Av. México 2, Tepic, México",
    "latitude": 21.5096,
    "longitude": -104.8958,
    "pin_color": "#e633f5",
    "zone": "Tepic",
    "client": "CLIENT0070"
  },
  {
    "code": "POLE0071",
    "title": "Poste León 7",
    "description": "Poste ubicado en León.",
    "address": "Blvd. Adolfo López Mateos 7, León, México",
    "latitude": 21.1625,
    "longitude": -101.6875,
    "pin_color": "#33aaff",
    "zone": "León",
    "client": "CLIENT0071"
  },
  {
    "code": "POLE0072",
    "title": "Poste León 8",
    "description": "Poste ubicado en León.",
    "address": "Blvd. Adolfo López Mateos 8, León, México",
    "latitude": 21.1626,
    "longitude": -101.6876,
    "pin_color": "#33aaff",
    "zone": "León",
    "client": "CLIENT0072"
  },
  {
    "code": "POLE0073",
    "title": "Poste Cancún 7",
    "description": "Poste ubicado en Cancún.",
    "address": "Av. Tulum 7, Cancún, México",
    "latitude": 21.1625,
    "longitude": -86.8521,
    "pin_color": "#ff33c4",
    "zone": "Cancún",
    "client": "CLIENT0073"
  },
  {
    "code": "POLE0074",
    "title": "Poste Cancún 8",
    "description": "Poste ubicado en Cancún.",
    "address": "Av. Tulum 8, Cancún, México",
    "latitude": 21.1626,
    "longitude": -86.8522,
    "pin_color": "#ff33c4",
    "zone": "Cancún",
    "client": "CLIENT0074"
  },
  {
    "code": "POLE0075",
    "title": "Poste Mérida 7",
    "description": "Poste ubicado en Mérida.",
    "address": "Calle 60 7, Mérida, México",
    "latitude": 20.9760,
    "longitude": -89.6176,
    "pin_color": "#a633ff",
    "zone": "Mérida",
    "client": "CLIENT0075"
  },
  {
    "code": "POLE0076",
    "title": "Poste Mérida 8",
    "description": "Poste ubicado en Mérida.",
    "address": "Calle 60 8, Mérida, México",
    "latitude": 20.9761,
    "longitude": -89.6177,
    "pin_color": "#a633ff",
    "zone": "Mérida",
    "client": "CLIENT0076"
  },
  {
    "code": "POLE0077",
    "title": "Poste Oaxaca 7",
    "description": "Poste ubicado en Oaxaca.",
    "address": "Av. Juárez 7, Oaxaca, México",
    "latitude": 17.0738,
    "longitude": -96.7272,
    "pin_color": "#33ff8a",
    "zone": "Oaxaca",
    "client": "CLIENT0077"
  },
  {
    "code": "POLE0078",
    "title": "Poste Oaxaca 8",
    "description": "Poste ubicado en Oaxaca.",
    "address": "Av. Juárez 8, Oaxaca, México",
    "latitude": 17.0739,
    "longitude": -96.7273,
    "pin_color": "#33ff8a",
    "zone": "Oaxaca",
    "client": "CLIENT0078"
  },
  {
    "code": "POLE0079",
    "title": "Poste San Luis Potosí 7",
    "description": "Poste ubicado en San Luis Potosí.",
    "address": "Av. Carranza 7, San Luis Potosí, México",
    "latitude": 22.1591,
    "longitude": -100.9861,
    "pin_color": "#ff5733",
    "zone": "San Luis Potosí",
    "client": "CLIENT0079"
  },
  {
    "code": "POLE0080",
    "title": "Poste San Luis Potosí 8",
    "description": "Poste ubicado en San Luis Potosí.",
    "address": "Av. Carranza 8, San Luis Potosí, México",
    "latitude": 22.1592,
    "longitude": -100.9862,
    "pin_color": "#ff5733",
    "zone": "San Luis Potosí",
    "client": "CLIENT0080"
  },
  {
    "code": "POLE0081",
    "title": "Poste Querétaro 7",
    "description": "Poste ubicado en Querétaro.",
    "address": "Av. 5 de Febrero 7, Querétaro, México",
    "latitude": 20.5894,
    "longitude": -100.3905,
    "pin_color": "#33aaff",
    "zone": "Querétaro",
    "client": "CLIENT0081"
  },
  {
    "code": "POLE0082",
    "title": "Poste Querétaro 8",
    "description": "Poste ubicado en Querétaro.",
    "address": "Av. 5 de Febrero 8, Querétaro, México",
    "latitude": 20.5895,
    "longitude": -100.3906,
    "pin_color": "#33aaff",
    "zone": "Querétaro",
    "client": "CLIENT0082"
  },
  {
    "code": "POLE0083",
    "title": "Poste Tijuana 7",
    "description": "Poste ubicado en Tijuana.",
    "address": "Blvd. Agua Caliente 7, Tijuana, México",
    "latitude": 32.5155,
    "longitude": -117.0388,
    "pin_color": "#ff33c4",
    "zone": "Tijuana",
    "client": "CLIENT0083"
  },
  {
    "code": "POLE0084",
    "title": "Poste Tijuana 8",
    "description": "Poste ubicado en Tijuana.",
    "address": "Blvd. Agua Caliente 8, Tijuana, México",
    "latitude": 32.5156,
    "longitude": -117.0389,
    "pin_color": "#ff33c4",
    "zone": "Tijuana",
    "client": "CLIENT0084"
  },
  {
    "code": "POLE0085",
    "title": "Poste León 9",
    "description": "Poste ubicado en León.",
    "address": "Blvd. Adolfo López Mateos 9, León, México",
    "latitude": 21.1627,
    "longitude": -101.6877,
    "pin_color": "#33aaff",
    "zone": "León",
    "client": "CLIENT0085"
  },
  {
    "code": "POLE0086",
    "title": "Poste León 10",
    "description": "Poste ubicado en León.",
    "address": "Blvd. Adolfo López Mateos 10, León, México",
    "latitude": 21.1628,
    "longitude": -101.6878,
    "pin_color": "#33aaff",
    "zone": "León",
    "client": "CLIENT0086"
  },
  {
    "code": "POLE0087",
    "title": "Poste Cancún 9",
    "description": "Poste ubicado en Cancún.",
    "address": "Av. Tulum 9, Cancún, México",
    "latitude": 21.1627,
    "longitude": -86.8523,
    "pin_color": "#ff33c4",
    "zone": "Cancún",
    "client": "CLIENT0087"
  },
  {
    "code": "POLE0088",
    "title": "Poste Cancún 10",
    "description": "Poste ubicado en Cancún.",
    "address": "Av. Tulum 10, Cancún, México",
    "latitude": 21.1628,
    "longitude": -86.8524,
    "pin_color": "#ff33c4",
    "zone": "Cancún",
    "client": "CLIENT0088"
  },
  {
    "code": "POLE0089",
    "title": "Poste Mérida 9",
    "description": "Poste ubicado en Mérida.",
    "address": "Calle 60 9, Mérida, México",
    "latitude": 20.9762,
    "longitude": -89.6178,
    "pin_color": "#a633ff",
    "zone": "Mérida",
    "client": "CLIENT0089"
  },
  {
    "code": "POLE0090",
    "title": "Poste Mérida 10",
    "description": "Poste ubicado en Mérida.",
    "address": "Calle 60 10, Mérida, México",
    "latitude": 20.9763,
    "longitude": -89.6179,
    "pin_color": "#a633ff",
    "zone": "Mérida",
    "client": "CLIENT0090"
  },
  {
    "code": "POLE0091",
    "title": "Poste Oaxaca 9",
    "description": "Poste ubicado en Oaxaca.",
    "address": "Av. Juárez 9, Oaxaca, México",
    "latitude": 17.0740,
    "longitude": -96.7274,
    "pin_color": "#33ff8a",
    "zone": "Oaxaca",
    "client": "CLIENT0091"
  },
  {
    "code": "POLE0092",
    "title": "Poste Oaxaca 10",
    "description": "Poste ubicado en Oaxaca.",
    "address": "Av. Juárez 10, Oaxaca, México",
    "latitude": 17.0741,
    "longitude": -96.7275,
    "pin_color": "#33ff8a",
    "zone": "Oaxaca",
    "client": "CLIENT0092"
  },
  {
    "code": "POLE0093",
    "title": "Poste San Luis Potosí 9",
    "description": "Poste ubicado en San Luis Potosí.",
    "address": "Av. Carranza 9, San Luis Potosí, México",
    "latitude": 22.1593,
    "longitude": -100.9863,
    "pin_color": "#ff5733",
    "zone": "San Luis Potosí",
    "client": "CLIENT0093"
  },
  {
    "code": "POLE0094",
    "title": "Poste San Luis Potosí 10",
    "description": "Poste ubicado en San Luis Potosí.",
    "address": "Av. Carranza 10, San Luis Potosí, México",
    "latitude": 22.1594,
    "longitude": -100.9864,
    "pin_color": "#ff5733",
    "zone": "San Luis Potosí",
    "client": "CLIENT0094"
  },
  {
    "code": "POLE0095",
    "title": "Poste Querétaro 9",
    "description": "Poste ubicado en Querétaro.",
    "address": "Av. 5 de Febrero 9, Querétaro, México",
    "latitude": 20.5896,
    "longitude": -100.3907,
    "pin_color": "#33aaff",
    "zone": "Querétaro",
    "client": "CLIENT0095"
  },
  {
    "code": "POLE0096",
    "title": "Poste Querétaro 10",
    "description": "Poste ubicado en Querétaro.",
    "address": "Av. 5 de Febrero 10, Querétaro, México",
    "latitude": 20.5897,
    "longitude": -100.3908,
    "pin_color": "#33aaff",
    "zone": "Querétaro",
    "client": "CLIENT0096"
  },
  {
    "code": "POLE0097",
    "title": "Poste Tijuana 9",
    "description": "Poste ubicado en Tijuana.",
    "address": "Blvd. Agua Caliente 9, Tijuana, México",
    "latitude": 32.5157,
    "longitude": -117.0390,
    "pin_color": "#ff33c4",
    "zone": "Tijuana",
    "client": "CLIENT0097"
  },
  {
    "code": "POLE0098",
    "title": "Poste Tijuana 10",
    "description": "Poste ubicado en Tijuana.",
    "address": "Blvd. Agua Caliente 10, Tijuana, México",
    "latitude": 32.5158,
    "longitude": -117.0391,
    "pin_color": "#ff33c4",
    "zone": "Tijuana",
    "client": "CLIENT0098"
  },
  {
    "code": "POLE0099",
    "title": "Poste León 11",
    "description": "Poste ubicado en León.",
    "address": "Blvd. Adolfo López Mateos 11, León, México",
    "latitude": 21.1629,
    "longitude": -101.6879,
    "pin_color": "#33aaff",
    "zone": "León",
    "client": "CLIENT0099"
  },
  {
    "code": "POLE0100",
    "title": "Poste León 12",
    "description": "Poste ubicado en León.",
    "address": "Blvd. Adolfo López Mateos 12, León, México",
    "latitude": 21.1630,
    "longitude": -101.6880,
    "pin_color": "#33aaff",
    "zone": "León",
    "client": "CLIENT0100"
  },
  {
    "code": "POLE0101",
    "title": "Poste Cancún 11",
    "description": "Poste ubicado en Cancún.",
    "address": "Av. Tulum 11, Cancún, México",
    "latitude": 21.1630,
    "longitude": -86.8525,
    "pin_color": "#ff33c4",
    "zone": "Cancún",
    "client": "CLIENT0101"
  },
  {
    "code": "POLE0102",
    "title": "Poste Cancún 12",
    "description": "Poste ubicado en Cancún.",
    "address": "Av. Tulum 12, Cancún, México",
    "latitude": 21.1631,
    "longitude": -86.8526,
    "pin_color": "#ff33c4",
    "zone": "Cancún",
    "client": "CLIENT0102"
  },
  {
    "code": "POLE0103",
    "title": "Poste Mérida 11",
    "description": "Poste ubicado en Mérida.",
    "address": "Calle 60 11, Mérida, México",
    "latitude": 20.9764,
    "longitude": -89.6179,
    "pin_color": "#a633ff",
    "zone": "Mérida",
    "client": "CLIENT0103"
  },
  {
    "code": "POLE0104",
    "title": "Poste Mérida 12",
    "description": "Poste ubicado en Mérida.",
    "address": "Calle 60 12, Mérida, México",
    "latitude": 20.9765,
    "longitude": -89.6180,
    "pin_color": "#a633ff",
    "zone": "Mérida",
    "client": "CLIENT0104"
  },
  {
    "code": "POLE0105",
    "title": "Poste Oaxaca 11",
    "description": "Poste ubicado en Oaxaca.",
    "address": "Av. Juárez 11, Oaxaca, México",
    "latitude": 17.0742,
    "longitude": -96.7276,
    "pin_color": "#33ff8a",
    "zone": "Oaxaca",
    "client": "CLIENT0105"
  },
  {
    "code": "POLE0106",
    "title": "Poste Oaxaca 12",
    "description": "Poste ubicado en Oaxaca.",
    "address": "Av. Juárez 12, Oaxaca, México",
    "latitude": 17.0743,
    "longitude": -96.7277,
    "pin_color": "#33ff8a",
    "zone": "Oaxaca",
    "client": "CLIENT0106"
  },
  {
    "code": "POLE0107",
    "title": "Poste San Luis Potosí 11",
    "description": "Poste ubicado en San Luis Potosí.",
    "address": "Av. Carranza 11, San Luis Potosí, México",
    "latitude": 22.1595,
    "longitude": -100.9865,
    "pin_color": "#ff5733",
    "zone": "San Luis Potosí",
    "client": "CLIENT0107"
  },
  {
    "code": "POLE0108",
    "title": "Poste San Luis Potosí 12",
    "description": "Poste ubicado en San Luis Potosí.",
    "address": "Av. Carranza 12, San Luis Potosí, México",
    "latitude": 22.1596,
    "longitude": -100.9866,
    "pin_color": "#ff5733",
    "zone": "San Luis Potosí",
    "client": "CLIENT0108"
  },
  {
    "code": "POLE0109",
    "title": "Poste Querétaro 11",
    "description": "Poste ubicado en Querétaro.",
    "address": "Av. 5 de Febrero 11, Querétaro, México",
    "latitude": 20.5898,
    "longitude": -100.3909,
    "pin_color": "#33aaff",
    "zone": "Querétaro",
    "client": "CLIENT0109"
  },
  {
    "code": "POLE0110",
    "title": "Poste Querétaro 12",
    "description": "Poste ubicado en Querétaro.",
    "address": "Av. 5 de Febrero 12, Querétaro, México",
    "latitude": 20.5899,
    "longitude": -100.3910,
    "pin_color": "#33aaff",
    "zone": "Querétaro",
    "client": "CLIENT0110"
  },
  {
    "code": "POLE0111",
    "title": "Poste Tijuana 11",
    "description": "Poste ubicado en Tijuana.",
    "address": "Blvd. Agua Caliente 11, Tijuana, México",
    "latitude": 32.5159,
    "longitude": -117.0392,
    "pin_color": "#ff33c4",
    "zone": "Tijuana",
    "client": "CLIENT0111"
  },
  {
    "code": "POLE0112",
    "title": "Poste Tijuana 12",
    "description": "Poste ubicado en Tijuana.",
    "address": "Blvd. Agua Caliente 12, Tijuana, México",
    "latitude": 32.5160,
    "longitude": -117.0393,
    "pin_color": "#ff33c4",
    "zone": "Tijuana",
    "client": "CLIENT0112"
  },
  {
    "code": "POLE0113",
    "title": "Poste León 13",
    "description": "Poste ubicado en León.",
    "address": "Blvd. Adolfo López Mateos 13, León, México",
    "latitude": 21.1631,
    "longitude": -101.6881,
    "pin_color": "#33aaff",
    "zone": "León",
    "client": "CLIENT0113"
  },
  {
    "code": "POLE0114",
    "title": "Poste León 14",
    "description": "Poste ubicado en León.",
    "address": "Blvd. Adolfo López Mateos 14, León, México",
    "latitude": 21.1632,
    "longitude": -101.6882,
    "pin_color": "#33aaff",
    "zone": "León",
    "client": "CLIENT0114"
  },
  {
    "code": "POLE0115",
    "title": "Poste Cancún 13",
    "description": "Poste ubicado en Cancún.",
    "address": "Av. Tulum 13, Cancún, México",
    "latitude": 21.1631,
    "longitude": -86.8527,
    "pin_color": "#ff33c4",
    "zone": "Cancún",
    "client": "CLIENT0115"
  },
  {
    "code": "POLE0116",
    "title": "Poste Cancún 14",
    "description": "Poste ubicado en Cancún.",
    "address": "Av. Tulum 14, Cancún, México",
    "latitude": 21.1632,
    "longitude": -86.8528,
    "pin_color": "#ff33c4",
    "zone": "Cancún",
    "client": "CLIENT0116"
  },
  {
    "code": "POLE0117",
    "title": "Poste Mérida 13",
    "description": "Poste ubicado en Mérida.",
    "address": "Calle 60 13, Mérida, México",
    "latitude": 20.9766,
    "longitude": -89.6181,
    "pin_color": "#a633ff",
    "zone": "Mérida",
    "client": "CLIENT0117"
  },
  {
    "code": "POLE0118",
    "title": "Poste Mérida 14",
    "description": "Poste ubicado en Mérida.",
    "address": "Calle 60 14, Mérida, México",
    "latitude": 20.9767,
    "longitude": -89.6182,
    "pin_color": "#a633ff",
    "zone": "Mérida",
    "client": "CLIENT0118"
  },
  {
    "code": "POLE0119",
    "title": "Poste Oaxaca 13",
    "description": "Poste ubicado en Oaxaca.",
    "address": "Av. Juárez 13, Oaxaca, México",
    "latitude": 17.0744,
    "longitude": -96.7278,
    "pin_color": "#33ff8a",
    "zone": "Oaxaca",
    "client": "CLIENT0119"
  },
  {
    "code": "POLE0120",
    "title": "Poste Oaxaca 14",
    "description": "Poste ubicado en Oaxaca.",
    "address": "Av. Juárez 14, Oaxaca, México",
    "latitude": 17.0745,
    "longitude": -96.7279,
    "pin_color": "#33ff8a",
    "zone": "Oaxaca",
    "client": "CLIENT0120"
  },
  {
    "code": "POLE0121",
    "title": "Poste San Luis Potosí 13",
    "description": "Poste ubicado en San Luis Potosí.",
    "address": "Av. Carranza 13, San Luis Potosí, México",
    "latitude": 22.1597,
    "longitude": -100.9867,
    "pin_color": "#ff5733",
    "zone": "San Luis Potosí",
    "client": "CLIENT0121"
  },
  {
    "code": "POLE0122",
    "title": "Poste San Luis Potosí 14",
    "description": "Poste ubicado en San Luis Potosí.",
    "address": "Av. Carranza 14, San Luis Potosí, México",
    "latitude": 22.1598,
    "longitude": -100.9868,
    "pin_color": "#ff5733",
    "zone": "San Luis Potosí",
    "client": "CLIENT0122"
  },
  {
    "code": "POLE0123",
    "title": "Poste Querétaro 13",
    "description": "Poste ubicado en Querétaro.",
    "address": "Av. 5 de Febrero 13, Querétaro, México",
    "latitude": 20.5900,
    "longitude": -100.3911,
    "pin_color": "#33aaff",
    "zone": "Querétaro",
    "client": "CLIENT0123"
  },
  {
    "code": "POLE0124",
    "title": "Poste Querétaro 14",
    "description": "Poste ubicado en Querétaro.",
    "address": "Av. 5 de Febrero 14, Querétaro, México",
    "latitude": 20.5901,
    "longitude": -100.3912,
    "pin_color": "#33aaff",
    "zone": "Querétaro",
    "client": "CLIENT0124"
  },
  {
    "code": "POLE0125",
    "title": "Poste Tijuana 13",
    "description": "Poste ubicado en Tijuana.",
    "address": "Blvd. Agua Caliente 13, Tijuana, México",
    "latitude": 32.5161,
    "longitude": -117.0394,
    "pin_color": "#ff33c4",
    "zone": "Tijuana",
    "client": "CLIENT0125"
  },
  {
    "code": "POLE0126",
    "title": "Poste Tijuana 14",
    "description": "Poste ubicado en Tijuana.",
    "address": "Blvd. Agua Caliente 14, Tijuana, México",
    "latitude": 32.5162,
    "longitude": -117.0395,
    "pin_color": "#ff33c4",
    "zone": "Tijuana",
    "client": "CLIENT0126"
  },
  {
    "code": "POLE0127",
    "title": "Poste León 15",
    "description": "Poste ubicado en León.",
    "address": "Blvd. Adolfo López Mateos 15, León, México",
    "latitude": 21.1633,
    "longitude": -101.6883,
    "pin_color": "#33aaff",
    "zone": "León",
    "client": "CLIENT0127"
  },
  {
    "code": "POLE0128",
    "title": "Poste León 16",
    "description": "Poste ubicado en León.",
    "address": "Blvd. Adolfo López Mateos 16, León, México",
    "latitude": 21.1634,
    "longitude": -101.6884,
    "pin_color": "#33aaff",
    "zone": "León",
    "client": "CLIENT0128"
  },
  {
    "code": "POLE0129",
    "title": "Poste Cancún 15",
    "description": "Poste ubicado en Cancún.",
    "address": "Av. Tulum 15, Cancún, México",
    "latitude": 21.1633,
    "longitude": -86.8529,
    "pin_color": "#ff33c4",
    "zone": "Cancún",
    "client": "CLIENT0129"
  },
  {
    "code": "POLE0130",
    "title": "Poste Cancún 16",
    "description": "Poste ubicado en Cancún.",
    "address": "Av. Tulum 16, Cancún, México",
    "latitude": 21.1634,
    "longitude": -86.8530,
    "pin_color": "#ff33c4",
    "zone": "Cancún",
    "client": "CLIENT0130"
  },
  {
    "code": "POLE0131",
    "title": "Poste Mérida 15",
    "description": "Poste ubicado en Mérida.",
    "address": "Calle 60 15, Mérida, México",
    "latitude": 20.9768,
    "longitude": -89.6183,
    "pin_color": "#a633ff",
    "zone": "Mérida",
    "client": "CLIENT0131"
  },
  {
    "code": "POLE0132",
    "title": "Poste Mérida 16",
    "description": "Poste ubicado en Mérida.",
    "address": "Calle 60 16, Mérida, México",
    "latitude": 20.9769,
    "longitude": -89.6184,
    "pin_color": "#a633ff",
    "zone": "Mérida",
    "client": "CLIENT0132"
  },
  {
    "code": "POLE0133",
    "title": "Poste Oaxaca 15",
    "description": "Poste ubicado en Oaxaca.",
    "address": "Av. Juárez 15, Oaxaca, México",
    "latitude": 17.0746,
    "longitude": -96.7280,
    "pin_color": "#33ff8a",
    "zone": "Oaxaca",
    "client": "CLIENT0133"
  },
  {
    "code": "POLE0134",
    "title": "Poste Oaxaca 16",
    "description": "Poste ubicado en Oaxaca.",
    "address": "Av. Juárez 16, Oaxaca, México",
    "latitude": 17.0747,
    "longitude": -96.7281,
    "pin_color": "#33ff8a",
    "zone": "Oaxaca",
    "client": "CLIENT0134"
  },
  {
    "code": "POLE0135",
    "title": "Poste San Luis Potosí 15",
    "description": "Poste ubicado en San Luis Potosí.",
    "address": "Av. Carranza 15, San Luis Potosí, México",
    "latitude": 22.1599,
    "longitude": -100.9869,
    "pin_color": "#ff5733",
    "zone": "San Luis Potosí",
    "client": "CLIENT0135"
  },
  {
    "code": "POLE0136",
    "title": "Poste San Luis Potosí 16",
    "description": "Poste ubicado en San Luis Potosí.",
    "address": "Av. Carranza 16, San Luis Potosí, México",
    "latitude": 22.1600,
    "longitude": -100.9870,
    "pin_color": "#ff5733",
    "zone": "San Luis Potosí",
    "client": "CLIENT0136"
  },
  {
    "code": "POLE0137",
    "title": "Poste Querétaro 15",
    "description": "Poste ubicado en Querétaro.",
    "address": "Av. 5 de Febrero 15, Querétaro, México",
    "latitude": 20.5902,
    "longitude": -100.3913,
    "pin_color": "#33aaff",
    "zone": "Querétaro",
    "client": "CLIENT0137"
  },
  {
    "code": "POLE0138",
    "title": "Poste Querétaro 16",
    "description": "Poste ubicado en Querétaro.",
    "address": "Av. 5 de Febrero 16, Querétaro, México",
    "latitude": 20.5903,
    "longitude": -100.3914,
    "pin_color": "#33aaff",
    "zone": "Querétaro",
    "client": "CLIENT0138"
  },
  {
    "code": "POLE0139",
    "title": "Poste Tijuana 15",
    "description": "Poste ubicado en Tijuana.",
    "address": "Blvd. Agua Caliente 15, Tijuana, México",
    "latitude": 32.5163,
    "longitude": -117.0396,
    "pin_color": "#ff33c4",
    "zone": "Tijuana",
    "client": "CLIENT0139"
  },
  {
    "code": "POLE0140",
    "title": "Poste Tijuana 16",
    "description": "Poste ubicado en Tijuana.",
    "address": "Blvd. Agua Caliente 16, Tijuana, México",
    "latitude": 32.5164,
    "longitude": -117.0397,
    "pin_color": "#ff33c4",
    "zone": "Tijuana",
    "client": "CLIENT0140"
  },
  {
    "code": "POLE0141",
    "title": "Poste León 17",
    "description": "Poste ubicado en León.",
    "address": "Blvd. Adolfo López Mateos 17, León, México",
    "latitude": 21.1635,
    "longitude": -101.6885,
    "pin_color": "#33aaff",
    "zone": "León",
    "client": "CLIENT0141"
  },
  {
    "code": "POLE0142",
    "title": "Poste León 18",
    "description": "Poste ubicado en León.",
    "address": "Blvd. Adolfo López Mateos 18, León, México",
    "latitude": 21.1636,
    "longitude": -101.6886,
    "pin_color": "#33aaff",
    "zone": "León",
    "client": "CLIENT0142"
  },
  {
    "code": "POLE0143",
    "title": "Poste Cancún 17",
    "description": "Poste ubicado en Cancún.",
    "address": "Av. Tulum 17, Cancún, México",
    "latitude": 21.1635,
    "longitude": -86.8531,
    "pin_color": "#ff33c4",
    "zone": "Cancún",
    "client": "CLIENT0143"
  },
  {
    "code": "POLE0144",
    "title": "Poste Cancún 18",
    "description": "Poste ubicado en Cancún.",
    "address": "Av. Tulum 18, Cancún, México",
    "latitude": 21.1636,
    "longitude": -86.8532,
    "pin_color": "#ff33c4",
    "zone": "Cancún",
    "client": "CLIENT0144"
  },
  {
    "code": "POLE0145",
    "title": "Poste Mérida 17",
    "description": "Poste ubicado en Mérida.",
    "address": "Calle 60 17, Mérida, México",
    "latitude": 20.9770,
    "longitude": -89.6185,
    "pin_color": "#a633ff",
    "zone": "Mérida",
    "client": "CLIENT0145"
  },
  {
    "code": "POLE0146",
    "title": "Poste Mérida 18",
    "description": "Poste ubicado en Mérida.",
    "address": "Calle 60 18, Mérida, México",
    "latitude": 20.9771,
    "longitude": -89.6186,
    "pin_color": "#a633ff",
    "zone": "Mérida",
    "client": "CLIENT0146"
  },
  {
    "code": "POLE0147",
    "title": "Poste Oaxaca 17",
    "description": "Poste ubicado en Oaxaca.",
    "address": "Av. Juárez 17, Oaxaca, México",
    "latitude": 17.0748,
    "longitude": -96.7282,
    "pin_color": "#33ff8a",
    "zone": "Oaxaca",
    "client": "CLIENT0147"
  },
  {
    "code": "POLE0148",
    "title": "Poste Oaxaca 18",
    "description": "Poste ubicado en Oaxaca.",
    "address": "Av. Juárez 18, Oaxaca, México",
    "latitude": 17.0749,
    "longitude": -96.7283,
    "pin_color": "#33ff8a",
    "zone": "Oaxaca",
    "client": "CLIENT0148"
  },
  {
    "code": "POLE0149",
    "title": "Poste San Luis Potosí 17",
    "description": "Poste ubicado en San Luis Potosí.",
    "address": "Av. Carranza 17, San Luis Potosí, México",
    "latitude": 22.1601,
    "longitude": -100.9871,
    "pin_color": "#ff5733",
    "zone": "San Luis Potosí",
    "client": "CLIENT0149"
  },
  {
    "code": "POLE0150",
    "title": "Poste San Luis Potosí 18",
    "description": "Poste ubicado en San Luis Potosí.",
    "address": "Av. Carranza 18, San Luis Potosí, México",
    "latitude": 22.1602,
    "longitude": -100.9872,
    "pin_color": "#ff5733",
    "zone": "San Luis Potosí",
    "client": "CLIENT0150"
  },
  {
    "code": "POLE0151",
   
    "description": "Poste ubicado en Querétaro.",
    "address": "Av. 5 de Febrero 17, Querétaro, México",
    "latitude": 20.5904,
    "longitude": -100.3915,
    "pin_color": "#33aaff",
    "zone": "Querétaro",
    "client": "CLIENT0151"
  },
  {
    "code": "POLE0152",
    "title": "Poste Querétaro 18",
    "description": "Poste ubicado en Querétaro.",
    "address": "Av. 5 de Febrero 18, Querétaro, México",
    "latitude": 20.5905,
    "longitude": -100.3916,
    "pin_color": "#33aaff",
    "zone": "Querétaro",
    "client": "CLIENT0152"
  },
  {
    "code": "POLE0153",
    "title": "Poste Tijuana 17",
    "description": "Poste ubicado en Tijuana.",
    "address": "Blvd. Agua Caliente 17, Tijuana, México",
    "latitude": 32.5165,
    "longitude": -117.0398,
    "pin_color": "#ff33c4",
    "zone": "Tijuana",
    "client": "CLIENT0153"
  },
  {
    "code": "POLE0154",
    "title": "Poste Tijuana 18",
    "description": "Poste ubicado en Tijuana.",
    "address": "Blvd. Agua Caliente 18, Tijuana, México",
    "latitude": 32.5166,
    "longitude": -117.0399,
    "pin_color": "#ff33c4",
    "zone": "Tijuana",
    "client": "CLIENT0154"
  }
]